{"type":"FeatureCollection","features":[{"type":"Feature","properties":{"name":"AMAZONAS","id":"01"},"geometry":{"type":"Point","coordinates":[-78.054894,-5.070718]}},{"type":"Feature","properties":{"name":"ANCASH","id":"02"},"geometry":{"type":"Point","coordinates":[-77.669974,-9.407024]}},{"type":"Feature","properties":{"name":"APURIMAC","id":"03"},"geometry":{"type":"Point","coordinates":[-72.975373,-14.028138]}},{"type":"Feature","properties":{"name":"AREQUIPA","id":"04"},"geometry":{"type":"Point","coordinates":[-72.523288,-15.872911]}},{"type":"Feature","properties":{"name":"AYACUCHO","id":"05"},"geometry":{"type":"Point","coordinates":[-74.200682,-13.966315]}},{"type":"Feature","properties":{"name":"CAJAMARCA","id":"06"},"geometry":{"type":"Point","coordinates":[-78.74544,-6.433004]}},{"type":"Feature","properties":{"name":"CALLAO","id":"07"},"geometry":{"type":"Point","coordinates":[-77.125852,-11.940382]}},{"type":"Feature","properties":{"name":"CUSCO","id":"08"},"geometry":{"type":"Point","coordinates":[-72.14232,-13.297559]}},{"type":"Feature","properties":{"name":"HUANCAVELICA","id":"09"},"geometry":{"type":"Point","coordinates":[-75.002786,-13.024386]}},{"type":"Feature","properties":{"name":"HUANUCO","id":"10"},"geometry":{"type":"Point","coordinates":[-76.02562,-9.416197]}},{"type":"Feature","properties":{"name":"ICA","id":"11"},"geometry":{"type":"Point","coordinates":[-75.573587,-14.234308]}},{"type":"Feature","properties":{"name":"JUNIN","id":"12"},"geometry":{"type":"Point","coordinates":[-74.87908,-11.538211]}},{"type":"Feature","properties":{"name":"LA LIBERTAD","id":"13"},"geometry":{"type":"Point","coordinates":[-78.368357,-7.921421]}},{"type":"Feature","properties":{"name":"LAMBAYEQUE","id":"14"},"geometry":{"type":"Point","coordinates":[-79.8269,-6.340558]}},{"type":"Feature","properties":{"name":"LIMA","id":"15"},"geometry":{"type":"Point","coordinates":[-76.627183,-11.785565]}},{"type":"Feature","properties":{"name":"LORETO","id":"16"},"geometry":{"type":"Point","coordinates":[-74.426359,-4.119806]}},{"type":"Feature","properties":{"name":"MADRE DE DIOS","id":"17"},"geometry":{"type":"Point","coordinates":[-70.534693,-11.980832]}},{"type":"Feature","properties":{"name":"MOQUEGUA","id":"18"},"geometry":{"type":"Point","coordinates":[-70.838425,-16.859838]}},{"type":"Feature","properties":{"name":"PASCO","id":"19"},"geometry":{"type":"Point","coordinates":[-75.29991,-10.398872]}},{"type":"Feature","properties":{"name":"PIURA","id":"20"},"geometry":{"type":"Point","coordinates":[-80.335973,-5.127998]}},{"type":"Feature","properties":{"name":"PUNO","id":"21"},"geometry":{"type":"Point","coordinates":[-69.843769,-14.995388]}},{"type":"Feature","properties":{"name":"SAN MARTIN","id":"22"},"geometry":{"type":"Point","coordinates":[-76.715031,-7.034171]}},{"type":"Feature","properties":{"name":"TACNA","id":"23"},"geometry":{"type":"Point","coordinates":[-70.276962,-17.644713]}},{"type":"Feature","properties":{"name":"TUMBES","id":"24"},"geometry":{"type":"Point","coordinates":[-80.544584,-3.856356]}},{"type":"Feature","properties":{"name":"UCAYALI","id":"25"},"geometry":{"type":"Point","coordinates":[-73.433362,-9.619916]}}]}